{"type": "FeatureCollection", "name": "点", "features": [{"type": "Feature", "properties": {"name": "昆明市", "QUHUADAIMA": "530100", "Location": 2, "Alignment": 2}, "geometry": {"type": "Point", "coordinates": [102.83059325958757, 24.889148927422035]}}, {"type": "Feature", "properties": {"name": "临沧市", "QUHUADAIMA": "530900", "Location": 4, "Alignment": 3}, "geometry": {"type": "Point", "coordinates": [100.09641004486032, 23.880204587312214]}}, {"type": "Feature", "properties": {"name": "玉溪市", "QUHUADAIMA": "530400", "Location": 4, "Alignment": 3}, "geometry": {"type": "Point", "coordinates": [102.54559031350874, 24.35082379353502]}}, {"type": "Feature", "properties": {"name": "保山市", "QUHUADAIMA": "530500", "Location": 4, "Alignment": 3}, "geometry": {"type": "Point", "coordinates": [99.16449627116744, 25.11492527466406]}}, {"type": "Feature", "properties": {"name": "曲靖市", "QUHUADAIMA": "530300", "Location": 2, "Alignment": 2}, "geometry": {"type": "Point", "coordinates": [103.79820350813445, 25.48814296126687]}}, {"type": "Feature", "properties": {"name": "昭通市", "QUHUADAIMA": "530600", "Location": 4, "Alignment": 3}, "geometry": {"type": "Point", "coordinates": [103.72119948748036, 27.342336309089]}}, {"type": "Feature", "properties": {"name": "普洱市", "QUHUADAIMA": "530800", "Location": 4, "Alignment": 3}, "geometry": {"type": "Point", "coordinates": [100.97517691995617, 22.782733350642197]}}, {"type": "Feature", "properties": {"name": "丽江市", "QUHUADAIMA": "530700", "Location": 3, "Alignment": 1}, "geometry": {"type": "Point", "coordinates": [100.23882984649079, 26.872030469048145]}}, {"geometry": {"coordinates": [101.6016, 25.3619], "type": "Point"}, "properties": {"name": "楚雄彝族自治州"}, "type": "Feature"}, {"geometry": {"coordinates": [103.0408, 23.6041], "type": "Point"}, "properties": {"name": "红河哈尼族彝族自治州"}, "type": "Feature"}, {"geometry": {"coordinates": [104.8865, 23.5712], "type": "Point"}, "properties": {"name": "文山壮族苗族自治州"}, "type": "Feature"}, {"geometry": {"coordinates": [100.8984, 21.8628], "type": "Point"}, "properties": {"name": "西双版纳傣族自治州"}, "type": "Feature"}, {"geometry": {"coordinates": [99.9536, 25.6805], "type": "Point"}, "properties": {"name": "大理白族自治州"}, "type": "Feature"}, {"geometry": {"coordinates": [98.1299, 24.5874], "type": "Point"}, "properties": {"name": "德宏傣族景颇族自治州"}, "type": "Feature"}, {"geometry": {"coordinates": [99.1516, 26.5594], "type": "Point"}, "properties": {"name": "怒江傈僳族自治州"}, "type": "Feature"}, {"geometry": {"coordinates": [99.4592, 27.9327], "type": "Point"}, "properties": {"name": "迪庆藏族自治州"}, "type": "Feature"}]}