{"type": "FeatureCollection", "name": "点", "features": [{"type": "Feature", "properties": {"name": "合肥市", "QUHUADAIMA": "340100", "Location": 6, "Alignment": 1}, "geometry": {"type": "Point", "coordinates": [117.28632938083686, 31.72868791388666]}}, {"type": "Feature", "properties": {"name": "淮北市", "QUHUADAIMA": "340600", "Location": 8, "Alignment": 2}, "geometry": {"type": "Point", "coordinates": [116.8108557220767, 33.95634192231905]}}, {"type": "Feature", "properties": {"name": "亳州市", "QUHUADAIMA": "341600", "Location": 8, "Alignment": 2}, "geometry": {"type": "Point", "coordinates": [115.78309850269862, 33.86530535915877]}}, {"type": "Feature", "properties": {"name": "宿州市", "QUHUADAIMA": "341300", "Location": 6, "Alignment": 1}, "geometry": {"type": "Point", "coordinates": [116.9898275345111, 33.636570586317085]}}, {"type": "Feature", "properties": {"name": "淮南市", "QUHUADAIMA": "340400", "Location": 4, "Alignment": 3}, "geometry": {"type": "Point", "coordinates": [117.02319318318244, 32.58167127306426]}}, {"type": "Feature", "properties": {"name": "滁州市", "QUHUADAIMA": "341100", "Location": 4, "Alignment": 3}, "geometry": {"type": "Point", "coordinates": [118.31770922879407, 32.30571771251629]}}, {"type": "Feature", "properties": {"name": "蚌埠市", "QUHUADAIMA": "340300", "Location": 4, "Alignment": 3}, "geometry": {"type": "Point", "coordinates": [117.38886585159185, 32.91842506383891]}}, {"type": "Feature", "properties": {"name": "阜阳市", "QUHUADAIMA": "341200", "Location": 4, "Alignment": 3}, "geometry": {"type": "Point", "coordinates": [115.81557215282139, 32.89999790239679]}}, {"type": "Feature", "properties": {"name": "六安市", "QUHUADAIMA": "341500", "Location": 4, "Alignment": 3}, "geometry": {"type": "Point", "coordinates": [116.5143565274663, 31.739261507434897]}}, {"type": "Feature", "properties": {"name": "宣城市", "QUHUADAIMA": "341800", "Location": 8, "Alignment": 2}, "geometry": {"type": "Point", "coordinates": [118.75738094670322, 30.94582355507409]}}, {"type": "Feature", "properties": {"name": "安庆市", "QUHUADAIMA": "340800", "Location": 4, "Alignment": 3}, "geometry": {"type": "Point", "coordinates": [117.0510708756058, 30.517195778090013]}}, {"type": "Feature", "properties": {"name": "铜陵市", "QUHUADAIMA": "340700", "Location": 8, "Alignment": 2}, "geometry": {"type": "Point", "coordinates": [117.8121813328147, 30.949374942992115]}}, {"type": "Feature", "properties": {"name": "池州市", "QUHUADAIMA": "341700", "Location": 8, "Alignment": 2}, "geometry": {"type": "Point", "coordinates": [117.50186961477414, 30.643483994594714]}}, {"type": "Feature", "properties": {"name": "黄山市", "QUHUADAIMA": "341000", "Location": 4, "Alignment": 3}, "geometry": {"type": "Point", "coordinates": [118.3332284414406, 29.714730287251143]}}, {"type": "Feature", "properties": {"name": "马鞍山市", "QUHUADAIMA": "340500", "Location": 4, "Alignment": 3}, "geometry": {"type": "Point", "coordinates": [118.47840428840449, 31.616074074287905]}}, {"type": "Feature", "properties": {"name": "芜湖市", "QUHUADAIMA": "340200", "Location": 7, "Alignment": 3}, "geometry": {"type": "Point", "coordinates": [118.433651275617, 31.353913164706405]}}]}