{"type": "FeatureCollection", "name": "点", "features": [{"type": "Feature", "properties": {"name": "济南市", "QUHUADAIMA": "370100", "Location": 6, "Alignment": 1}, "geometry": {"type": "Point", "coordinates": [117.11935455868401, 36.65203069188615]}}, {"type": "Feature", "properties": {"name": "东营市", "QUHUADAIMA": "370500", "Location": 4, "Alignment": 3}, "geometry": {"type": "Point", "coordinates": [118.66016251629284, 37.42110422115865]}}, {"type": "Feature", "properties": {"name": "菏泽市", "QUHUADAIMA": "371700", "Location": 4, "Alignment": 3}, "geometry": {"type": "Point", "coordinates": [115.4798563731728, 35.23904370760091]}}, {"type": "Feature", "properties": {"name": "威海市", "QUHUADAIMA": "371000", "Location": 8, "Alignment": 2}, "geometry": {"type": "Point", "coordinates": [122.12056064576934, 37.51178592770231]}}, {"type": "Feature", "properties": {"name": "烟台市", "QUHUADAIMA": "370600", "Location": 4, "Alignment": 3}, "geometry": {"type": "Point", "coordinates": [121.43172067644802, 37.46366333031291]}}, {"type": "Feature", "properties": {"name": "滨州市", "QUHUADAIMA": "371600", "Location": 4, "Alignment": 3}, "geometry": {"type": "Point", "coordinates": [118.02235604702042, 37.3784731157343]}}, {"type": "Feature", "properties": {"name": "德州市", "QUHUADAIMA": "371400", "Location": 6, "Alignment": 1}, "geometry": {"type": "Point", "coordinates": [116.31027297830168, 37.44295581899174]}}, {"type": "Feature", "properties": {"name": "青岛市", "QUHUADAIMA": "370200", "Location": 4, "Alignment": 3}, "geometry": {"type": "Point", "coordinates": [120.38258384377774, 36.06506753161324]}}, {"type": "Feature", "properties": {"name": "潍坊市", "QUHUADAIMA": "370700", "Location": 4, "Alignment": 3}, "geometry": {"type": "Point", "coordinates": [119.16239923201515, 36.70385771880752]}}, {"type": "Feature", "properties": {"name": "淄博市", "QUHUADAIMA": "370300", "Location": 8, "Alignment": 2}, "geometry": {"type": "Point", "coordinates": [118.05823493709174, 36.80430856346772]}}, {"type": "Feature", "properties": {"name": "泰安市", "QUHUADAIMA": "370900", "Location": 4, "Alignment": 3}, "geometry": {"type": "Point", "coordinates": [117.12238503514725, 36.19295296616621]}}, {"type": "Feature", "properties": {"name": "聊城市", "QUHUADAIMA": "371500", "Location": 4, "Alignment": 3}, "geometry": {"type": "Point", "coordinates": [115.98455035188512, 36.4552481870342]}}, {"type": "Feature", "properties": {"name": "日照市", "QUHUADAIMA": "371100", "Location": 4, "Alignment": 3}, "geometry": {"type": "Point", "coordinates": [119.55126243147176, 35.39255344996701]}}, {"type": "Feature", "properties": {"name": "临沂市", "QUHUADAIMA": "371300", "Location": 4, "Alignment": 3}, "geometry": {"type": "Point", "coordinates": [118.34804042739705, 35.05042493461895]}}, {"type": "Feature", "properties": {"name": "济宁市", "QUHUADAIMA": "370800", "Location": 4, "Alignment": 3}, "geometry": {"type": "Point", "coordinates": [116.58919978222104, 35.412855370184126]}}, {"type": "Feature", "properties": {"name": "枣庄市", "QUHUADAIMA": "370400", "Location": 2, "Alignment": 2}, "geometry": {"type": "Point", "coordinates": [117.33137561523205, 34.81264602477674]}}]}