{"type": "FeatureCollection", "name": "点", "features": [{"type": "Feature", "properties": {"name": "南京市", "QUHUADAIMA": "320100", "Location": 6, "Alignment": 1}, "geometry": {"type": "Point", "coordinates": [118.79734772255817, 32.05937198475719]}}, {"type": "Feature", "properties": {"name": "南通市", "QUHUADAIMA": "320600", "Location": 4, "Alignment": 3}, "geometry": {"type": "Point", "coordinates": [120.89379037001655, 31.981884312842265]}}, {"type": "Feature", "properties": {"name": "无锡市", "QUHUADAIMA": "320200", "Location": 4, "Alignment": 3}, "geometry": {"type": "Point", "coordinates": [120.30461883134062, 31.566157042294613]}}, {"type": "Feature", "properties": {"name": "泰州市", "QUHUADAIMA": "321200", "Location": 6, "Alignment": 1}, "geometry": {"type": "Point", "coordinates": [119.92279870482815, 32.45668186767002]}}, {"type": "Feature", "properties": {"name": "扬州市", "QUHUADAIMA": "321000", "Location": 4, "Alignment": 3}, "geometry": {"type": "Point", "coordinates": [119.41243507518271, 32.393938667381235]}}, {"type": "Feature", "properties": {"name": "盐城市", "QUHUADAIMA": "320900", "Location": 4, "Alignment": 3}, "geometry": {"type": "Point", "coordinates": [120.14404678085681, 33.36596151678464]}}, {"type": "Feature", "properties": {"name": "淮安市", "QUHUADAIMA": "320800", "Location": 4, "Alignment": 3}, "geometry": {"type": "Point", "coordinates": [119.0145808216285, 33.61040384630287]}}, {"type": "Feature", "properties": {"name": "连云港市", "QUHUADAIMA": "320700", "Location": 4, "Alignment": 3}, "geometry": {"type": "Point", "coordinates": [119.21965584646316, 34.59678753828855]}}, {"type": "Feature", "properties": {"name": "徐州市", "QUHUADAIMA": "320300", "Location": 4, "Alignment": 3}, "geometry": {"type": "Point", "coordinates": [117.28545730256646, 34.20375560776929]}}, {"type": "Feature", "properties": {"name": "宿迁市", "QUHUADAIMA": "321300", "Location": 4, "Alignment": 3}, "geometry": {"type": "Point", "coordinates": [118.2722230255074, 33.96313803216686]}}, {"type": "Feature", "properties": {"name": "镇江市", "QUHUADAIMA": "321100", "Location": 4, "Alignment": 3}, "geometry": {"type": "Point", "coordinates": [119.45643184562559, 32.20250832416391]}}, {"type": "Feature", "properties": {"name": "苏州市", "QUHUADAIMA": "320500", "Location": 4, "Alignment": 3}, "geometry": {"type": "Point", "coordinates": [120.58393366512152, 31.298360727138167]}}, {"type": "Feature", "properties": {"name": "常州市", "QUHUADAIMA": "320400", "Location": 4, "Alignment": 3}, "geometry": {"type": "Point", "coordinates": [119.97497160634194, 31.811213149851255]}}]}