{"type": "FeatureCollection", "name": "点", "features": [{"type": "Feature", "properties": {"name": "海口市", "QUHUADAIMA": "460100", "Location": 8, "Alignment": 6}, "geometry": {"type": "Point", "coordinates": [110.20240656667174, 20.042372999358722]}}, {"type": "Feature", "properties": {"name": "三亚市", "QUHUADAIMA": "460200", "Location": 2, "Alignment": 2}, "geometry": {"type": "Point", "coordinates": [109.5141350990984, 18.255315262272376]}}, {"type": "Feature", "properties": {"name": "儋州市", "QUHUADAIMA": "460400", "Location": 4, "Alignment": 3}, "geometry": {"type": "Point", "coordinates": [109.57485512500459, 19.513328040757358]}}, {"type": "Feature", "properties": {"name": "琼海市", "QUHUADAIMA": "469002", "Location": 7, "Alignment": 3}, "geometry": {"type": "Point", "coordinates": [110.46645031638135, 19.2424815325446]}}, {"type": "Feature", "properties": {"name": "文昌市", "QUHUADAIMA": "469005", "Location": 4, "Alignment": 3}, "geometry": {"type": "Point", "coordinates": [110.80899320139542, 19.549807095687342]}}, {"type": "Feature", "properties": {"name": "五指山市", "QUHUADAIMA": "469001", "Location": 1, "Alignment": 2}, "geometry": {"type": "Point", "coordinates": [109.51960756034768, 18.775023167856038]}}, {"type": "Feature", "properties": {"name": "万宁市", "QUHUADAIMA": "469006", "Location": 4, "Alignment": 3}, "geometry": {"type": "Point", "coordinates": [110.39503129095975, 18.794506197933345]}}, {"type": "Feature", "properties": {"name": "东方市", "QUHUADAIMA": "469007", "Location": 6, "Alignment": 1}, "geometry": {"type": "Point", "coordinates": [108.63836115758878, 19.100624274967196]}}, {"type": "Feature", "properties": {"name": "屯昌县", "QUHUADAIMA": "469022", "Location": 4, "Alignment": 3}, "geometry": {"type": "Point", "coordinates": [110.10364893021747, 19.364312054316187]}}, {"type": "Feature", "properties": {"name": "琼中黎族苗族自治县", "QUHUADAIMA": "469030", "Location": 8, "Alignment": 2}, "geometry": {"type": "Point", "coordinates": [109.84127993198919, 19.036084980910196]}}, {"type": "Feature", "properties": {"name": "澄迈县", "QUHUADAIMA": "469023", "Location": 6, "Alignment": 1}, "geometry": {"type": "Point", "coordinates": [110.01139247531215, 19.738434272761715]}}, {"type": "Feature", "properties": {"name": "临高县", "QUHUADAIMA": "469024", "Location": 6, "Alignment": 1}, "geometry": {"type": "Point", "coordinates": [109.68837861560472, 19.91218629069403]}}, {"type": "Feature", "properties": {"name": "白沙黎族自治县", "QUHUADAIMA": "469025", "Location": 8, "Alignment": 2}, "geometry": {"type": "Point", "coordinates": [109.45353721100452, 19.22225366493649]}}, {"type": "Feature", "properties": {"name": "昌江黎族自治县", "QUHUADAIMA": "469026", "Location": 2, "Alignment": 2}, "geometry": {"type": "Point", "coordinates": [109.0510021332534, 19.25078766282973]}}, {"type": "Feature", "properties": {"name": "陵水黎族自治县", "QUHUADAIMA": "469028", "Location": 8, "Alignment": 2}, "geometry": {"type": "Point", "coordinates": [110.04151359349419, 18.503476017647202]}}, {"type": "Feature", "properties": {"name": "保亭黎族苗族自治县", "QUHUADAIMA": "469029", "Location": 8, "Alignment": 2}, "geometry": {"type": "Point", "coordinates": [109.69706392736265, 18.644109725048363]}}, {"type": "Feature", "properties": {"name": "乐东黎族自治县", "QUHUADAIMA": "469027", "Location": 8, "Alignment": 2}, "geometry": {"type": "Point", "coordinates": [109.18088076045514, 18.7465403492901]}}, {"type": "Feature", "properties": {"name": "定安县", "QUHUADAIMA": "469021", "Location": 8, "Alignment": 2}, "geometry": {"type": "Point", "coordinates": [110.32476527234513, 19.69898812478394]}}]}