{"type": "FeatureCollection", "name": "点", "features": [{"type": "Feature", "properties": {"name": "随州市", "QUHUADAIMA": "421300", "Location": 4, "Alignment": 3}, "geometry": {"type": "Point", "coordinates": [113.38237594747969, 31.690422681142145]}}, {"type": "Feature", "properties": {"name": "宜昌市", "QUHUADAIMA": "420500", "Location": 4, "Alignment": 3}, "geometry": {"type": "Point", "coordinates": [111.28380883923042, 30.702709518829696]}}, {"type": "Feature", "properties": {"name": "襄阳市", "QUHUADAIMA": "420600", "Location": 4, "Alignment": 3}, "geometry": {"type": "Point", "coordinates": [112.1351157316103, 32.00900741478384]}}, {"type": "Feature", "properties": {"name": "十堰市", "QUHUADAIMA": "420300", "Location": 4, "Alignment": 3}, "geometry": {"type": "Point", "coordinates": [110.78962943348117, 32.65146069901751]}}, {"type": "Feature", "properties": {"name": "荆门市", "QUHUADAIMA": "420800", "Location": 4, "Alignment": 3}, "geometry": {"type": "Point", "coordinates": [112.20401390869688, 31.03529946430609]}}, {"type": "Feature", "properties": {"name": "鄂州市", "QUHUADAIMA": "420700", "Location": 4, "Alignment": 3}, "geometry": {"type": "Point", "coordinates": [114.89569349512152, 30.392485355293356]}}, {"type": "Feature", "properties": {"name": "黄石市", "QUHUADAIMA": "420200", "Location": 4, "Alignment": 3}, "geometry": {"type": "Point", "coordinates": [115.03723365261683, 30.20098732509741]}}, {"type": "Feature", "properties": {"name": "黄冈市", "QUHUADAIMA": "421100", "Location": 2, "Alignment": 2}, "geometry": {"type": "Point", "coordinates": [114.87984234367016, 30.43433244375046]}}, {"type": "Feature", "properties": {"name": "孝感市", "QUHUADAIMA": "420900", "Location": 4, "Alignment": 3}, "geometry": {"type": "Point", "coordinates": [113.95283841908217, 30.920986996682863]}}, {"type": "Feature", "properties": {"name": "咸宁市", "QUHUADAIMA": "421200", "Location": 4, "Alignment": 3}, "geometry": {"type": "Point", "coordinates": [114.32224015050238, 29.84294016452315]}}, {"type": "Feature", "properties": {"name": "荆州市", "QUHUADAIMA": "421000", "Location": 4, "Alignment": 3}, "geometry": {"type": "Point", "coordinates": [112.23976837217086, 30.335262983127755]}}, {"type": "Feature", "properties": {"name": "潜江市", "QUHUADAIMA": "429005", "Location": 6, "Alignment": 1}, "geometry": {"type": "Point", "coordinates": [112.9023510259001, 30.41884399156225]}}, {"type": "Feature", "properties": {"name": "天门市", "QUHUADAIMA": "429006", "Location": 6, "Alignment": 1}, "geometry": {"type": "Point", "coordinates": [113.16678769043133, 30.65201941727564]}}, {"type": "Feature", "properties": {"name": "仙桃市", "QUHUADAIMA": "429004", "Location": 8, "Alignment": 2}, "geometry": {"type": "Point", "coordinates": [113.44784043470659, 30.363970620443787]}}, {"type": "Feature", "properties": {"name": "武汉市", "QUHUADAIMA": "420100", "Location": 6, "Alignment": 1}, "geometry": {"type": "Point", "coordinates": [114.30462127306797, 30.593956652495827]}}, {"type": "Feature", "properties": {"name": "神农架林区", "QUHUADAIMA": "429021", "Location": 6, "Alignment": 1}, "geometry": {"type": "Point", "coordinates": [110.67081343828714, 31.74800650249441]}}, {"geometry": {"coordinates": [109.5007, 30.2563], "type": "Point"}, "properties": {"name": "恩施土家族苗族自治州"}, "type": "Feature"}]}