{"type": "FeatureCollection", "name": "点", "features": [{"type": "Feature", "properties": {"name": "沈阳市", "QUHUADAIMA": "210100", "Location": 4, "Alignment": 3}, "geometry": {"type": "Point", "coordinates": [123.46567797130255, 41.67160118509813]}}, {"type": "Feature", "properties": {"name": "铁岭市", "QUHUADAIMA": "211200", "Location": 2, "Alignment": 2}, "geometry": {"type": "Point", "coordinates": [123.84193680513818, 42.29225854301447]}}, {"type": "Feature", "properties": {"name": "阜新市", "QUHUADAIMA": "210900", "Location": 2, "Alignment": 2}, "geometry": {"type": "Point", "coordinates": [121.65856340787275, 42.01772525632929]}}, {"type": "Feature", "properties": {"name": "辽阳市", "QUHUADAIMA": "211000", "Location": 1, "Alignment": 2}, "geometry": {"type": "Point", "coordinates": [123.17024834175962, 41.26543043529503]}}, {"type": "Feature", "properties": {"name": "抚顺市", "QUHUADAIMA": "210400", "Location": 6, "Alignment": 1}, "geometry": {"type": "Point", "coordinates": [123.96406416723184, 41.877903309475265]}}, {"type": "Feature", "properties": {"name": "鞍山市", "QUHUADAIMA": "210300", "Location": 8, "Alignment": 2}, "geometry": {"type": "Point", "coordinates": [122.9949349945012, 41.10764212424763]}}, {"type": "Feature", "properties": {"name": "盘锦市", "QUHUADAIMA": "211100", "Location": 8, "Alignment": 2}, "geometry": {"type": "Point", "coordinates": [122.07228363181919, 41.12394069331231]}}, {"type": "Feature", "properties": {"name": "锦州市", "QUHUADAIMA": "210700", "Location": 2, "Alignment": 2}, "geometry": {"type": "Point", "coordinates": [121.13157299761004, 41.090438292135545]}}, {"type": "Feature", "properties": {"name": "朝阳市", "QUHUADAIMA": "211300", "Location": 4, "Alignment": 3}, "geometry": {"type": "Point", "coordinates": [120.45252017739, 41.571430500227635]}}, {"type": "Feature", "properties": {"name": "丹东市", "QUHUADAIMA": "210600", "Location": 4, "Alignment": 3}, "geometry": {"type": "Point", "coordinates": [124.32354134956793, 40.13613346337109]}}, {"type": "Feature", "properties": {"name": "营口市", "QUHUADAIMA": "210800", "Location": 9, "Alignment": 1}, "geometry": {"type": "Point", "coordinates": [122.23282196135729, 40.66660125795066]}}, {"type": "Feature", "properties": {"name": "葫芦岛市", "QUHUADAIMA": "211400", "Location": 4, "Alignment": 3}, "geometry": {"type": "Point", "coordinates": [120.84442673290715, 40.717809568838824]}}, {"type": "Feature", "properties": {"name": "大连市", "QUHUADAIMA": "210200", "Location": 4, "Alignment": 3}, "geometry": {"type": "Point", "coordinates": [121.60508832850694, 38.9137241689956]}}, {"type": "Feature", "properties": {"name": "本溪市", "QUHUADAIMA": "210500", "Location": 6, "Alignment": 1}, "geometry": {"type": "Point", "coordinates": [123.76685254823511, 41.291623349254614]}}]}