{
	"type": "FeatureCollection",
	"features": [
		{
			"type": "Feature",
			"geometry": {
				"type": "Point",
				"coordinates": [
					45.769249059887638,
					6.959053172520347
				]
			},
			"properties": {
				"name": "索马里"
			}
		},
		{
			"type": "Feature",
			"geometry": {
				"type": "Point",
				"coordinates": [
					9.50367219080846,
					47.11606634269806
				]
			},
			"properties": {
				"name": "列支敦士登"
			}
		},
		{
			"type": "Feature",
			"geometry": {
				"type": "Point",
				"coordinates": [
					-5.335931263064862,
					31.756627175208356
				]
			},
			"properties": {
				"name": "摩洛哥"
			}
		},
		{
			"type": "Feature",
			"geometry": {
				"type": "Point",
				"coordinates": [
					-12.42896283787971,
					24.64912401216501
				]
			},
			"properties": {
				"name": "西撒哈拉"
			}
		},
		{
			"type": "Feature",
			"geometry": {
				"type": "Point",
				"coordinates": [
					21.117679641744549,
					44.1503284222768
				]
			},
			"properties": {
				"name": "塞尔维亚"
			}
		},
		{
			"type": "Feature",
			"geometry": {
				"type": "Point",
				"coordinates": [
					67.32676360577263,
					35.55372874985954
				]
			},
			"properties": {
				"name": "阿富汗"
			}
		},
		{
			"type": "Feature",
			"geometry": {
				"type": "Point",
				"coordinates": [
					17.605999741966344,
					-10.18235885250329
				]
			},
			"properties": {
				"name": "安哥拉"
			}
		},
		{
			"type": "Feature",
			"geometry": {
				"type": "Point",
				"coordinates": [
					20.16243873016079,
					40.77903369383713
				]
			},
			"properties": {
				"name": "阿尔巴尼亚"
			}
		},
		{
			"type": "Feature",
			"geometry": {
				"type": "Point",
				"coordinates": [
					1.587622618184257,
					42.54098642401473
				]
			},
			"properties": {
				"name": "安道尔"
			}
		},
		{
			"type": "Feature",
			"geometry": {
				"type": "Point",
				"coordinates": [
					54.458379258595119,
					24.388822399734616
				]
			},
			"properties": {
				"name": "阿拉伯联合酋长国"
			}
		},
		{
			"type": "Feature",
			"geometry": {
				"type": "Point",
				"coordinates": [
					-64.12639540747212,
					-36.69434209737847
				]
			},
			"properties": {
				"name": "阿根廷"
			}
		},
		{
			"type": "Feature",
			"geometry": {
				"type": "Point",
				"coordinates": [
					45.35373076403374,
					40.038936817477317
				]
			},
			"properties": {
				"name": "亚美尼亚"
			}
		},
		{
			"type": "Feature",
			"geometry": {
				"type": "Point",
				"coordinates": [
					-170.7102819945629,
					-14.320329691250564
				]
			},
			"properties": {
				"name": "美属萨摩亚"
			}
		},
		{
			"type": "Feature",
			"geometry": {
				"type": "Point",
				"coordinates": [
					67.04589215725523,
					-49.006445752659157
				]
			},
			"properties": {
				"name": "法属南部和南极领地"
			}
		},
		{
			"type": "Feature",
			"geometry": {
				"type": "Point",
				"coordinates": [
					-61.79923149976639,
					17.070901172196277
				]
			},
			"properties": {
				"name": "安提瓜和巴布达"
			}
		},
		{
			"type": "Feature",
			"geometry": {
				"type": "Point",
				"coordinates": [
					135.88113122411915,
					-24.94282090908258
				]
			},
			"properties": {
				"name": "澳大利亚"
			}
		},
		{
			"type": "Feature",
			"geometry": {
				"type": "Point",
				"coordinates": [
					12.51863237036766,
					47.503172796641589
				]
			},
			"properties": {
				"name": "奥地利"
			}
		},
		{
			"type": "Feature",
			"geometry": {
				"type": "Point",
				"coordinates": [
					46.97557948857078,
					40.188317746280038
				]
			},
			"properties": {
				"name": "阿塞拜疆"
			}
		},
		{
			"type": "Feature",
			"geometry": {
				"type": "Point",
				"coordinates": [
					30.124451833223004,
					-2.983657656348798
				]
			},
			"properties": {
				"name": "布隆迪"
			}
		},
		{
			"type": "Feature",
			"geometry": {
				"type": "Point",
				"coordinates": [
					4.847195040255916,
					50.49164432023185
				]
			},
			"properties": {
				"name": "比利时"
			}
		},
		{
			"type": "Feature",
			"geometry": {
				"type": "Point",
				"coordinates": [
					2.712977095040833,
					9.221794617998035
				]
			},
			"properties": {
				"name": "贝宁"
			}
		},
		{
			"type": "Feature",
			"geometry": {
				"type": "Point",
				"coordinates": [
					-2.158701488520529,
					11.669992421501086
				]
			},
			"properties": {
				"name": "布基纳法索"
			}
		},
		{
			"type": "Feature",
			"geometry": {
				"type": "Point",
				"coordinates": [
					90.30206540783695,
					23.6974432840873
				]
			},
			"properties": {
				"name": "孟加拉国"
			}
		},
		{
			"type": "Feature",
			"geometry": {
				"type": "Point",
				"coordinates": [
					24.92695622170342,
					42.4459982186177
				]
			},
			"properties": {
				"name": "保加利亚"
			}
		},
		{
			"type": "Feature",
			"geometry": {
				"type": "Point",
				"coordinates": [
					50.551890932525939,
					26.00137962259515
				]
			},
			"properties": {
				"name": "巴林"
			}
		},
		{
			"type": "Feature",
			"geometry": {
				"type": "Point",
				"coordinates": [
					-76.07565108271388,
					24.2446370621033
				]
			},
			"properties": {
				"name": "巴哈马"
			}
		},
		{
			"type": "Feature",
			"geometry": {
				"type": "Point",
				"coordinates": [
					18.262934027811754,
					43.86437939675863
				]
			},
			"properties": {
				"name": "波斯尼亚和墨塞哥维那"
			}
		},
		{
			"type": "Feature",
			"geometry": {
				"type": "Point",
				"coordinates": [
					28.518515351153935,
					53.657368930050569
				]
			},
			"properties": {
				"name": "白俄罗斯"
			}
		},
		{
			"type": "Feature",
			"geometry": {
				"type": "Point",
				"coordinates": [
					-88.43162376816568,
					17.484413582786659
				]
			},
			"properties": {
				"name": "伯利兹"
			}
		},
		{
			"type": "Feature",
			"geometry": {
				"type": "Point",
				"coordinates": [
					-64.747950449012,
					32.31070102528135
				]
			},
			"properties": {
				"name": "百慕大"
			}
		},
		{
			"type": "Feature",
			"geometry": {
				"type": "Point",
				"coordinates": [
					-64.2849528558014,
					-17.35306025374832
				]
			},
			"properties": {
				"name": "玻利维亚"
			}
		},
		{
			"type": "Feature",
			"geometry": {
				"type": "Point",
				"coordinates": [
					-55.57529703049836,
					-10.671574234679757
				]
			},
			"properties": {
				"name": "巴西"
			}
		},
		{
			"type": "Feature",
			"geometry": {
				"type": "Point",
				"coordinates": [
					-59.53443771306265,
					13.144407364099747
				]
			},
			"properties": {
				"name": "巴巴多斯"
			}
		},
		{
			"type": "Feature",
			"geometry": {
				"type": "Point",
				"coordinates": [
					114.87454545025638,
					4.66668611585036
				]
			},
			"properties": {
				"name": "文莱"
			}
		},
		{
			"type": "Feature",
			"geometry": {
				"type": "Point",
				"coordinates": [
					90.54253711153159,
					27.432867919347026
				]
			},
			"properties": {
				"name": "不丹"
			}
		},
		{
			"type": "Feature",
			"geometry": {
				"type": "Point",
				"coordinates": [
					25.00013402186502,
					-23.14780081503098
				]
			},
			"properties": {
				"name": "博茨瓦纳"
			}
		},
		{
			"type": "Feature",
			"geometry": {
				"type": "Point",
				"coordinates": [
					20.57366518513657,
					6.545751372948047
				]
			},
			"properties": {
				"name": "中非共和国"
			}
		},
		{
			"type": "Feature",
			"geometry": {
				"type": "Point",
				"coordinates": [
					-91.7578125,
					64.62387720204689
				]
			},
			"properties": {
				"name": "加拿大"
			}
		},
		{
			"type": "Feature",
			"geometry": {
				"type": "Point",
				"coordinates": [
					8.367420103628774,
					46.732575872804549
				]
			},
			"properties": {
				"name": "瑞士"
			}
		},
		{
			"type": "Feature",
			"geometry": {
				"type": "Point",
				"coordinates": [
					-72.46245121585589,
					-44.28452280412797
				]
			},
			"properties": {
				"name": "智利"
			}
		},
		{
			"type": "Feature",
			"geometry": {
				"type": "Point",
				"coordinates": [
					114.43359375,
					37.579412513438388
				]
			},
			"properties": {
				"name": "中国"
			}
		},
		{
			"type": "Feature",
			"geometry": {
				"type": "Point",
				"coordinates": [
					-5.703053669253389,
					8.366159963528883
				]
			},
			"properties": {
				"name": "科特迪瓦"
			}
		},
		{
			"type": "Feature",
			"geometry": {
				"type": "Point",
				"coordinates": [
					12.290859759213346,
					6.747263837222617
				]
			},
			"properties": {
				"name": "喀麦隆"
			}
		},
		{
			"type": "Feature",
			"geometry": {
				"type": "Point",
				"coordinates": [
					23.243113689363445,
					-4.911240653605579
				]
			},
			"properties": {
				"name": "刚果民主共和国"
			}
		},
		{
			"type": "Feature",
			"geometry": {
				"type": "Point",
				"coordinates": [
					14.171074974762093,
					-1.5821619110588528
				]
			},
			"properties": {
				"name": "刚果"
			}
		},
		{
			"type": "Feature",
			"geometry": {
				"type": "Point",
				"coordinates": [
					-73.08870386245813,
					3.2180531281984789
				]
			},
			"properties": {
				"name": "哥伦比亚"
			}
		},
		{
			"type": "Feature",
			"geometry": {
				"type": "Point",
				"coordinates": [
					43.803952500767049,
					-12.04324632676438
				]
			},
			"properties": {
				"name": "科摩罗"
			}
		},
		{
			"type": "Feature",
			"geometry": {
				"type": "Point",
				"coordinates": [
					-23.95474452801761,
					16.087232795532157
				]
			},
			"properties": {
				"name": "佛得角"
			}
		},
		{
			"type": "Feature",
			"geometry": {
				"type": "Point",
				"coordinates": [
					-83.73351563621242,
					9.571530938412379
				]
			},
			"properties": {
				"name": "哥斯达黎加"
			}
		},
		{
			"type": "Feature",
			"geometry": {
				"type": "Point",
				"coordinates": [
					-79.64687925398614,
					21.782705995429767
				]
			},
			"properties": {
				"name": "古巴"
			}
		},
		{
			"type": "Feature",
			"geometry": {
				"type": "Point",
				"coordinates": [
					-68.91395763397448,
					12.16046622409876
				]
			},
			"properties": {
				"name": "库拉索"
			}
		},
		{
			"type": "Feature",
			"geometry": {
				"type": "Point",
				"coordinates": [
					-80.56920357836292,
					19.522153050117394
				]
			},
			"properties": {
				"name": "开曼群岛"
			}
		},
		{
			"type": "Feature",
			"geometry": {
				"type": "Point",
				"coordinates": [
					33.49297979546302,
					35.22236357871107
				]
			},
			"properties": {
				"name": "北塞浦路斯"
			}
		},
		{
			"type": "Feature",
			"geometry": {
				"type": "Point",
				"coordinates": [
					33.08602378636763,
					34.99745462940855
				]
			},
			"properties": {
				"name": "塞浦路斯"
			}
		},
		{
			"type": "Feature",
			"geometry": {
				"type": "Point",
				"coordinates": [
					15.00628284238353,
					50.02478668896448
				]
			},
			"properties": {
				"name": "捷克共和国"
			}
		},
		{
			"type": "Feature",
			"geometry": {
				"type": "Point",
				"coordinates": [
					11.34273935323082,
					50.79444662967723
				]
			},
			"properties": {
				"name": "德国"
			}
		},
		{
			"type": "Feature",
			"geometry": {
				"type": "Point",
				"coordinates": [
					42.737651571833549,
					12.017932134728826
				]
			},
			"properties": {
				"name": "吉布提"
			}
		},
		{
			"type": "Feature",
			"geometry": {
				"type": "Point",
				"coordinates": [
					-61.33479476207032,
					15.377042630353627
				]
			},
			"properties": {
				"name": "多米尼加"
			}
		},
		{
			"type": "Feature",
			"geometry": {
				"type": "Point",
				"coordinates": [
					10.929212260356474,
					55.69230752417815
				]
			},
			"properties": {
				"name": "丹麦"
			}
		},
		{
			"type": "Feature",
			"geometry": {
				"type": "Point",
				"coordinates": [
					-70.8918969619517,
					18.813575434164706
				]
			},
			"properties": {
				"name": "多米尼加共和国"
			}
		},
		{
			"type": "Feature",
			"geometry": {
				"type": "Point",
				"coordinates": [
					2.7276750988918296,
					33.52690748278473
				]
			},
			"properties": {
				"name": "阿尔及利亚"
			}
		},
		{
			"type": "Feature",
			"geometry": {
				"type": "Point",
				"coordinates": [
					-81.9819444150088,
					-2.0662282305163259
				]
			},
			"properties": {
				"name": "厄瓜多尔"
			}
		},
		{
			"type": "Feature",
			"geometry": {
				"type": "Point",
				"coordinates": [
					31.39947520851645,
					28.510617317542314
				]
			},
			"properties": {
				"name": "埃及"
			}
		},
		{
			"type": "Feature",
			"geometry": {
				"type": "Point",
				"coordinates": [
					39.51364842247839,
					14.856158123653924
				]
			},
			"properties": {
				"name": "厄立特里亚"
			}
		},
		{
			"type": "Feature",
			"geometry": {
				"type": "Point",
				"coordinates": [
					-6.535396171017465,
					37.440000640558029
				]
			},
			"properties": {
				"name": "西班牙"
			}
		},
		{
			"type": "Feature",
			"geometry": {
				"type": "Point",
				"coordinates": [
					24.48736373714315,
					58.53777804518758
				]
			},
			"properties": {
				"name": "爱沙尼亚"
			}
		},
		{
			"type": "Feature",
			"geometry": {
				"type": "Point",
				"coordinates": [
					38.84916736500919,
					9.52460223252884
				]
			},
			"properties": {
				"name": "埃塞俄比亚"
			}
		},
		{
			"type": "Feature",
			"geometry": {
				"type": "Point",
				"coordinates": [
					25.035605274783163,
					64.63551350757354
				]
			},
			"properties": {
				"name": "芬兰"
			}
		},
		{
			"type": "Feature",
			"geometry": {
				"type": "Point",
				"coordinates": [
					179.06141116619276,
					-17.282397480737364
				]
			},
			"properties": {
				"name": "斐济"
			}
		},
		{
			"type": "Feature",
			"geometry": {
				"type": "Point",
				"coordinates": [
					-59.5941082192606,
					-51.706373043348538
				]
			},
			"properties": {
				"name": "福克兰群岛"
			}
		},
		{
			"type": "Feature",
			"geometry": {
				"type": "Point",
				"coordinates": [
					-11.793180810224238,
					38.495267583727677
				]
			},
			"properties": {
				"name": "法国"
			}
		},
		{
			"type": "Feature",
			"geometry": {
				"type": "Point",
				"coordinates": [
					-6.817334083539573,
					62.17068079262456
				]
			},
			"properties": {
				"name": "法罗群岛"
			}
		},
		{
			"type": "Feature",
			"geometry": {
				"type": "Point",
				"coordinates": [
					149.35365683083558,
					8.159655007715882
				]
			},
			"properties": {
				"name": "密克罗尼西亚"
			}
		},
		{
			"type": "Feature",
			"geometry": {
				"type": "Point",
				"coordinates": [
					11.30506036120712,
					-0.7616063310194305
				]
			},
			"properties": {
				"name": "加蓬"
			}
		},
		{
			"type": "Feature",
			"geometry": {
				"type": "Point",
				"coordinates": [
					-4.018048085167383,
					55.23222157851731
				]
			},
			"properties": {
				"name": "英国"
			}
		},
		{
			"type": "Feature",
			"geometry": {
				"type": "Point",
				"coordinates": [
					43.65538677886091,
					42.157453063364368
				]
			},
			"properties": {
				"name": "格鲁吉亚"
			}
		},
		{
			"type": "Feature",
			"geometry": {
				"type": "Point",
				"coordinates": [
					-1.4126632309301799,
					8.474377307851137
				]
			},
			"properties": {
				"name": "加纳"
			}
		},
		{
			"type": "Feature",
			"geometry": {
				"type": "Point",
				"coordinates": [
					-11.05912504306451,
					10.02504360957099
				]
			},
			"properties": {
				"name": "几内亚"
			}
		},
		{
			"type": "Feature",
			"geometry": {
				"type": "Point",
				"coordinates": [
					-15.674008303160936,
					13.404867849462653
				]
			},
			"properties": {
				"name": "冈比亚"
			}
		},
		{
			"type": "Feature",
			"geometry": {
				"type": "Point",
				"coordinates": [
					-15.283149813982627,
					11.767182210237703
				]
			},
			"properties": {
				"name": "几内亚比绍"
			}
		},
		{
			"type": "Feature",
			"geometry": {
				"type": "Point",
				"coordinates": [
					9.78906093632213,
					2.007361058222674
				]
			},
			"properties": {
				"name": "赤道几内亚"
			}
		},
		{
			"type": "Feature",
			"geometry": {
				"type": "Point",
				"coordinates": [
					23.930867362944356,
					38.625798788587569
				]
			},
			"properties": {
				"name": "希腊"
			}
		},
		{
			"type": "Feature",
			"geometry": {
				"type": "Point",
				"coordinates": [
					-61.68828076835212,
					12.108438992208736
				]
			},
			"properties": {
				"name": "格林纳达"
			}
		},
		{
			"type": "Feature",
			"geometry": {
				"type": "Point",
				"coordinates": [
					-42.19580647949791,
					72.32467657784415
				]
			},
			"properties": {
				"name": "格陵兰"
			}
		},
		{
			"type": "Feature",
			"geometry": {
				"type": "Point",
				"coordinates": [
					-90.31820543253684,
					15.68765949182499
				]
			},
			"properties": {
				"name": "危地马拉"
			}
		},
		{
			"type": "Feature",
			"geometry": {
				"type": "Point",
				"coordinates": [
					144.78977946555163,
					13.426466777027429
				]
			},
			"properties": {
				"name": "关岛"
			}
		},
		{
			"type": "Feature",
			"geometry": {
				"type": "Point",
				"coordinates": [
					-59.15719601367065,
					4.5290201121964579
				]
			},
			"properties": {
				"name": "圭亚那"
			}
		},
		{
			"type": "Feature",
			"geometry": {
				"type": "Point",
				"coordinates": [
					73.5935882130528,
					-53.10957857375507
				]
			},
			"properties": {
				"name": "赫德岛和麦克唐纳群岛"
			}
		},
		{
			"type": "Feature",
			"geometry": {
				"type": "Point",
				"coordinates": [
					-86.3561365314441,
					14.512270939752188
				]
			},
			"properties": {
				"name": "洪都拉斯"
			}
		},
		{
			"type": "Feature",
			"geometry": {
				"type": "Point",
				"coordinates": [
					16.34425237927763,
					44.78975884986787
				]
			},
			"properties": {
				"name": "克罗地亚"
			}
		},
		{
			"type": "Feature",
			"geometry": {
				"type": "Point",
				"coordinates": [
					-72.47106540848145,
					18.825276656790885
				]
			},
			"properties": {
				"name": "海地"
			}
		},
		{
			"type": "Feature",
			"geometry": {
				"type": "Point",
				"coordinates": [
					19.267688376507708,
					47.06780806832559
				]
			},
			"properties": {
				"name": "匈牙利"
			}
		},
		{
			"type": "Feature",
			"geometry": {
				"type": "Point",
				"coordinates": [
					119.2580268836906,
					-3.1323023427418814
				]
			},
			"properties": {
				"name": "印度尼西亚"
			}
		},
		{
			"type": "Feature",
			"geometry": {
				"type": "Point",
				"coordinates": [
					-4.508845328636153,
					54.21283796106133
				]
			},
			"properties": {
				"name": "马恩岛"
			}
		},
		{
			"type": "Feature",
			"geometry": {
				"type": "Point",
				"coordinates": [
					82.43412201219701,
					24.937357811428084
				]
			},
			"properties": {
				"name": "印度"
			}
		},
		{
			"type": "Feature",
			"geometry": {
				"type": "Point",
				"coordinates": [
					72.44260716066121,
					-7.344956970705817
				]
			},
			"properties": {
				"name": "英属印度洋领地"
			}
		},
		{
			"type": "Feature",
			"geometry": {
				"type": "Point",
				"coordinates": [
					-8.681986080695229,
					53.43572723882128
				]
			},
			"properties": {
				"name": "爱尔兰"
			}
		},
		{
			"type": "Feature",
			"geometry": {
				"type": "Point",
				"coordinates": [
					54.34775710105242,
					32.63455293259364
				]
			},
			"properties": {
				"name": "伊朗"
			}
		},
		{
			"type": "Feature",
			"geometry": {
				"type": "Point",
				"coordinates": [
					44.94614566025601,
					33.99224136118718
				]
			},
			"properties": {
				"name": "伊拉克"
			}
		},
		{
			"type": "Feature",
			"geometry": {
				"type": "Point",
				"coordinates": [
					-19.932163484332305,
					65.39229250328812
				]
			},
			"properties": {
				"name": "冰岛"
			}
		},
		{
			"type": "Feature",
			"geometry": {
				"type": "Point",
				"coordinates": [
					35.10284755291016,
					31.990737516964619
				]
			},
			"properties": {
				"name": "以色列"
			}
		},
		{
			"type": "Feature",
			"geometry": {
				"type": "Point",
				"coordinates": [
					11.758726952911549,
					43.4146995085287
				]
			},
			"properties": {
				"name": "意大利"
			}
		},
		{
			"type": "Feature",
			"geometry": {
				"type": "Point",
				"coordinates": [
					-77.2884508307065,
					18.094804478153596
				]
			},
			"properties": {
				"name": "牙买加"
			}
		},
		{
			"type": "Feature",
			"geometry": {
				"type": "Point",
				"coordinates": [
					37.226634238843647,
					31.197033976892095
				]
			},
			"properties": {
				"name": "约旦"
			}
		},
		{
			"type": "Feature",
			"geometry": {
				"type": "Point",
				"coordinates": [
					134.2573823463307,
					35.26442248583329
				]
			},
			"properties": {
				"name": "日本"
			}
		},
		{
			"type": "Feature",
			"geometry": {
				"type": "Point",
				"coordinates": [
					77.1923692431416,
					35.42091186207849
				]
			},
			"properties": {
				"name": "锡亚琴冰川"
			}
		},
		{
			"type": "Feature",
			"geometry": {
				"type": "Point",
				"coordinates": [
					66.54633357081633,
					48.302376142523197
				]
			},
			"properties": {
				"name": "哈萨克斯坦"
			}
		},
		{
			"type": "Feature",
			"geometry": {
				"type": "Point",
				"coordinates": [
					37.44887357994274,
					2.233103184117641
				]
			},
			"properties": {
				"name": "肯尼亚"
			}
		},
		{
			"type": "Feature",
			"geometry": {
				"type": "Point",
				"coordinates": [
					73.44843417272527,
					40.97159169607214
				]
			},
			"properties": {
				"name": "吉尔吉斯斯坦"
			}
		},
		{
			"type": "Feature",
			"geometry": {
				"type": "Point",
				"coordinates": [
					105.55126327524104,
					13.094126437701869
				]
			},
			"properties": {
				"name": "柬埔寨"
			}
		},
		{
			"type": "Feature",
			"geometry": {
				"type": "Point",
				"coordinates": [
					-158.02968389288805,
					2.555047808682639
				]
			},
			"properties": {
				"name": "基里巴斯"
			}
		},
		{
			"type": "Feature",
			"geometry": {
				"type": "Point",
				"coordinates": [
					127.21140811818987,
					35.49338980059401
				]
			},
			"properties": {
				"name": "韩国"
			}
		},
		{
			"type": "Feature",
			"geometry": {
				"type": "Point",
				"coordinates": [
					47.76736989071921,
					29.488226494756828
				]
			},
			"properties": {
				"name": "科威特"
			}
		},
		{
			"type": "Feature",
			"geometry": {
				"type": "Point",
				"coordinates": [
					104.04662934511102,
					18.155271444263584
				]
			},
			"properties": {
				"name": "老挝人民民主共和国"
			}
		},
		{
			"type": "Feature",
			"geometry": {
				"type": "Point",
				"coordinates": [
					36.0231565369722,
					33.9159522977612
				]
			},
			"properties": {
				"name": "黎巴嫩"
			}
		},
		{
			"type": "Feature",
			"geometry": {
				"type": "Point",
				"coordinates": [
					-9.140463591411186,
					6.9017182468264679
				]
			},
			"properties": {
				"name": "利比里亚"
			}
		},
		{
			"type": "Feature",
			"geometry": {
				"type": "Point",
				"coordinates": [
					15.599768286606114,
					29.58710753959356
				]
			},
			"properties": {
				"name": "利比亚"
			}
		},
		{
			"type": "Feature",
			"geometry": {
				"type": "Point",
				"coordinates": [
					-60.944623501683697,
					13.86410095708141
				]
			},
			"properties": {
				"name": "圣卢西亚"
			}
		},
		{
			"type": "Feature",
			"geometry": {
				"type": "Point",
				"coordinates": [
					80.40489281852713,
					8.345010604265078
				]
			},
			"properties": {
				"name": "斯里兰卡"
			}
		},
		{
			"type": "Feature",
			"geometry": {
				"type": "Point",
				"coordinates": [
					28.339931312156656,
					-29.551755430929647
				]
			},
			"properties": {
				"name": "莱索托"
			}
		},
		{
			"type": "Feature",
			"geometry": {
				"type": "Point",
				"coordinates": [
					24.271515451439759,
					54.946278147112639
				]
			},
			"properties": {
				"name": "立陶宛"
			}
		},
		{
			"type": "Feature",
			"geometry": {
				"type": "Point",
				"coordinates": [
					6.044704504897562,
					49.775912281053958
				]
			},
			"properties": {
				"name": "卢森堡"
			}
		},
		{
			"type": "Feature",
			"geometry": {
				"type": "Point",
				"coordinates": [
					25.52898938165676,
					56.8762126636802
				]
			},
			"properties": {
				"name": "拉脱维亚"
			}
		},
		{
			"type": "Feature",
			"geometry": {
				"type": "Point",
				"coordinates": [
					28.73453863049191,
					46.699145762554177
				]
			},
			"properties": {
				"name": "摩尔多瓦"
			}
		},
		{
			"type": "Feature",
			"geometry": {
				"type": "Point",
				"coordinates": [
					47.2611676546472,
					-16.97323826384704
				]
			},
			"properties": {
				"name": "马达加斯加"
			}
		},
		{
			"type": "Feature",
			"geometry": {
				"type": "Point",
				"coordinates": [
					-102.25401372637264,
					23.558749296199914
				]
			},
			"properties": {
				"name": "墨西哥"
			}
		},
		{
			"type": "Feature",
			"geometry": {
				"type": "Point",
				"coordinates": [
					21.77421458917865,
					41.603861204062528
				]
			},
			"properties": {
				"name": "马其顿"
			}
		},
		{
			"type": "Feature",
			"geometry": {
				"type": "Point",
				"coordinates": [
					-5.7087485208785939,
					14.705401604286694
				]
			},
			"properties": {
				"name": "马里"
			}
		},
		{
			"type": "Feature",
			"geometry": {
				"type": "Point",
				"coordinates": [
					14.480076157865929,
					35.87642610853711
				]
			},
			"properties": {
				"name": "马耳他"
			}
		},
		{
			"type": "Feature",
			"geometry": {
				"type": "Point",
				"coordinates": [
					96.80344143304409,
					19.17187144429487
				]
			},
			"properties": {
				"name": "缅甸"
			}
		},
		{
			"type": "Feature",
			"geometry": {
				"type": "Point",
				"coordinates": [
					19.074109035477517,
					43.08598069643781
				]
			},
			"properties": {
				"name": "黑山"
			}
		},
		{
			"type": "Feature",
			"geometry": {
				"type": "Point",
				"coordinates": [
					103.74371416856305,
					48.33585002053227
				]
			},
			"properties": {
				"name": "蒙古"
			}
		},
		{
			"type": "Feature",
			"geometry": {
				"type": "Point",
				"coordinates": [
					145.75973599578348,
					15.186746552408323
				]
			},
			"properties": {
				"name": "北马里亚纳群岛"
			}
		},
		{
			"type": "Feature",
			"geometry": {
				"type": "Point",
				"coordinates": [
					35.5505252919515,
					-17.107613254166709
				]
			},
			"properties": {
				"name": "莫桑比克"
			}
		},
		{
			"type": "Feature",
			"geometry": {
				"type": "Point",
				"coordinates": [
					-11.982460634352269,
					20.134702725519554
				]
			},
			"properties": {
				"name": "毛里塔尼亚"
			}
		},
		{
			"type": "Feature",
			"geometry": {
				"type": "Point",
				"coordinates": [
					-62.17746701296714,
					16.746144881935814
				]
			},
			"properties": {
				"name": "蒙特塞拉特"
			}
		},
		{
			"type": "Feature",
			"geometry": {
				"type": "Point",
				"coordinates": [
					57.58082681931413,
					-20.297356158982074
				]
			},
			"properties": {
				"name": "毛里求斯"
			}
		},
		{
			"type": "Feature",
			"geometry": {
				"type": "Point",
				"coordinates": [
					34.35563357110863,
					-13.169428954255169
				]
			},
			"properties": {
				"name": "马拉维"
			}
		},
		{
			"type": "Feature",
			"geometry": {
				"type": "Point",
				"coordinates": [
					110.62845081329341,
					4.277617325050245
				]
			},
			"properties": {
				"name": "马来西亚"
			}
		},
		{
			"type": "Feature",
			"geometry": {
				"type": "Point",
				"coordinates": [
					17.68071550417576,
					-22.464831595995205
				]
			},
			"properties": {
				"name": "纳米比亚"
			}
		},
		{
			"type": "Feature",
			"geometry": {
				"type": "Point",
				"coordinates": [
					166.67881359477998,
					-21.37152182340609
				]
			},
			"properties": {
				"name": "新喀里多尼亚"
			}
		},
		{
			"type": "Feature",
			"geometry": {
				"type": "Point",
				"coordinates": [
					7.22874236097609,
					15.199245160882838
				]
			},
			"properties": {
				"name": "尼日尔"
			}
		},
		{
			"type": "Feature",
			"geometry": {
				"type": "Point",
				"coordinates": [
					7.988761831096339,
					8.60582462548948
				]
			},
			"properties": {
				"name": "尼日利亚"
			}
		},
		{
			"type": "Feature",
			"geometry": {
				"type": "Point",
				"coordinates": [
					-85.0786700754254,
					13.3241626727747
				]
			},
			"properties": {
				"name": "尼加拉瓜"
			}
		},
		{
			"type": "Feature",
			"geometry": {
				"type": "Point",
				"coordinates": [
					-169.8473014475399,
					-19.051230291435809
				]
			},
			"properties": {
				"name": "纽埃"
			}
		},
		{
			"type": "Feature",
			"geometry": {
				"type": "Point",
				"coordinates": [
					-1.8483962042050575,
					51.444395447361717
				]
			},
			"properties": {
				"name": "荷兰"
			}
		},
		{
			"type": "Feature",
			"geometry": {
				"type": "Point",
				"coordinates": [
					14.771409658829626,
					69.33854069761661
				]
			},
			"properties": {
				"name": "挪威"
			}
		},
		{
			"type": "Feature",
			"geometry": {
				"type": "Point",
				"coordinates": [
					84.16805705784479,
					28.183075795823265
				]
			},
			"properties": {
				"name": "尼泊尔"
			}
		},
		{
			"type": "Feature",
			"geometry": {
				"type": "Point",
				"coordinates": [
					172.6871279475878,
					-41.97391417794825
				]
			},
			"properties": {
				"name": "新西兰"
			}
		},
		{
			"type": "Feature",
			"geometry": {
				"type": "Point",
				"coordinates": [
					56.73545570155957,
					21.75554044150926
				]
			},
			"properties": {
				"name": "阿曼"
			}
		},
		{
			"type": "Feature",
			"geometry": {
				"type": "Point",
				"coordinates": [
					69.15361976112405,
					28.336489096557377
				]
			},
			"properties": {
				"name": "巴基斯坦"
			}
		},
		{
			"type": "Feature",
			"geometry": {
				"type": "Point",
				"coordinates": [
					-80.7779024447714,
					8.53489170504805
				]
			},
			"properties": {
				"name": "巴拿马"
			}
		},
		{
			"type": "Feature",
			"geometry": {
				"type": "Point",
				"coordinates": [
					-74.13787760700355,
					-6.633993543493476
				]
			},
			"properties": {
				"name": "秘鲁"
			}
		},
		{
			"type": "Feature",
			"geometry": {
				"type": "Point",
				"coordinates": [
					122.65993508408173,
					11.23587673669774
				]
			},
			"properties": {
				"name": "菲律宾"
			}
		},
		{
			"type": "Feature",
			"geometry": {
				"type": "Point",
				"coordinates": [
					134.58942298195704,
					7.500490832778301
				]
			},
			"properties": {
				"name": "帕劳"
			}
		},
		{
			"type": "Feature",
			"geometry": {
				"type": "Point",
				"coordinates": [
					149.24341295715753,
					-6.781955323996899
				]
			},
			"properties": {
				"name": "巴布亚新几内亚"
			}
		},
		{
			"type": "Feature",
			"geometry": {
				"type": "Point",
				"coordinates": [
					18.862337528781866,
					51.835604452235738
				]
			},
			"properties": {
				"name": "波兰"
			}
		},
		{
			"type": "Feature",
			"geometry": {
				"type": "Point",
				"coordinates": [
					-66.06786123874797,
					18.236943699718375
				]
			},
			"properties": {
				"name": "波多黎各"
			}
		},
		{
			"type": "Feature",
			"geometry": {
				"type": "Point",
				"coordinates": [
					127.31436601078527,
					40.2062331571825
				]
			},
			"properties": {
				"name": "朝鲜"
			}
		},
		{
			"type": "Feature",
			"geometry": {
				"type": "Point",
				"coordinates": [
					-15.361997813801466,
					39.07047960780252
				]
			},
			"properties": {
				"name": "葡萄牙"
			}
		},
		{
			"type": "Feature",
			"geometry": {
				"type": "Point",
				"coordinates": [
					-57.27384705268256,
					-23.77305409071211
				]
			},
			"properties": {
				"name": "巴拉圭"
			}
		},
		{
			"type": "Feature",
			"geometry": {
				"type": "Point",
				"coordinates": [
					34.93777550100047,
					31.851149118360494
				]
			},
			"properties": {
				"name": "巴勒斯坦"
			}
		},
		{
			"type": "Feature",
			"geometry": {
				"type": "Point",
				"coordinates": [
					-143.3629229645664,
					-13.191639337387512
				]
			},
			"properties": {
				"name": "法属波利尼西亚"
			}
		},
		{
			"type": "Feature",
			"geometry": {
				"type": "Point",
				"coordinates": [
					51.11926791628583,
					24.999679723880289
				]
			},
			"properties": {
				"name": "卡塔尔"
			}
		},
		{
			"type": "Feature",
			"geometry": {
				"type": "Point",
				"coordinates": [
					24.306579409720297,
					45.754928660244079
				]
			},
			"properties": {
				"name": "罗马尼亚"
			}
		},
		{
			"type": "Feature",
			"geometry": {
				"type": "Point",
				"coordinates": [
					97.13055582863024,
					70.901646276725
				]
			},
			"properties": {
				"name": "俄罗斯"
			}
		},
		{
			"type": "Feature",
			"geometry": {
				"type": "Point",
				"coordinates": [
					30.15541857385066,
					-1.9157848703292256
				]
			},
			"properties": {
				"name": "卢旺达"
			}
		},
		{
			"type": "Feature",
			"geometry": {
				"type": "Point",
				"coordinates": [
					43.720152330041887,
					25.154204084643344
				]
			},
			"properties": {
				"name": "沙特阿拉伯"
			}
		},
		{
			"type": "Feature",
			"geometry": {
				"type": "Point",
				"coordinates": [
					31.237154981057196,
					14.587710652718537
				]
			},
			"properties": {
				"name": "苏丹"
			}
		},
		{
			"type": "Feature",
			"geometry": {
				"type": "Point",
				"coordinates": [
					30.46675343996676,
					7.349276215211107
				]
			},
			"properties": {
				"name": "南苏丹"
			}
		},
		{
			"type": "Feature",
			"geometry": {
				"type": "Point",
				"coordinates": [
					-14.945188765167993,
					13.917604088752473
				]
			},
			"properties": {
				"name": "塞内加尔"
			}
		},
		{
			"type": "Feature",
			"geometry": {
				"type": "Point",
				"coordinates": [
					103.85190465463197,
					1.358878104076005
				]
			},
			"properties": {
				"name": "新加坡"
			}
		},
		{
			"type": "Feature",
			"geometry": {
				"type": "Point",
				"coordinates": [
					-36.90549794553104,
					-54.26904329371999
				]
			},
			"properties": {
				"name": "南桑威奇群岛"
			}
		},
		{
			"type": "Feature",
			"geometry": {
				"type": "Point",
				"coordinates": [
					-5.718662814293332,
					-15.976419252770374
				]
			},
			"properties": {
				"name": "圣赫勒拿"
			}
		},
		{
			"type": "Feature",
			"geometry": {
				"type": "Point",
				"coordinates": [
					159.41490119927759,
					-8.915112240048435
				]
			},
			"properties": {
				"name": "所罗门群岛"
			}
		},
		{
			"type": "Feature",
			"geometry": {
				"type": "Point",
				"coordinates": [
					-11.6388848224032,
					8.592043538240859
				]
			},
			"properties": {
				"name": "塞拉利昂"
			}
		},
		{
			"type": "Feature",
			"geometry": {
				"type": "Point",
				"coordinates": [
					-88.64916315236451,
					13.876243378796758
				]
			},
			"properties": {
				"name": "萨尔瓦多"
			}
		},
		{
			"type": "Feature",
			"geometry": {
				"type": "Point",
				"coordinates": [
					-56.320850902415937,
					46.898853074034558
				]
			},
			"properties": {
				"name": "圣皮埃尔和密克隆"
			}
		},
		{
			"type": "Feature",
			"geometry": {
				"type": "Point",
				"coordinates": [
					6.933677031168545,
					0.7620862193171174
				]
			},
			"properties": {
				"name": "圣多美和普林西比"
			}
		},
		{
			"type": "Feature",
			"geometry": {
				"type": "Point",
				"coordinates": [
					-55.56095939313466,
					3.2947940629720686
				]
			},
			"properties": {
				"name": "苏里南"
			}
		},
		{
			"type": "Feature",
			"geometry": {
				"type": "Point",
				"coordinates": [
					20.08166932955179,
					48.82834189923462
				]
			},
			"properties": {
				"name": "斯洛伐克"
			}
		},
		{
			"type": "Feature",
			"geometry": {
				"type": "Point",
				"coordinates": [
					14.683313670089449,
					45.99441115895079
				]
			},
			"properties": {
				"name": "斯洛文尼亚"
			}
		},
		{
			"type": "Feature",
			"geometry": {
				"type": "Point",
				"coordinates": [
					16.727970373466407,
					61.4330942033369
				]
			},
			"properties": {
				"name": "瑞典"
			}
		},
		{
			"type": "Feature",
			"geometry": {
				"type": "Point",
				"coordinates": [
					31.54747244186222,
					-26.551096282995795
				]
			},
			"properties": {
				"name": "斯威士兰"
			}
		},
		{
			"type": "Feature",
			"geometry": {
				"type": "Point",
				"coordinates": [
					55.49255326175611,
					-4.667952101763838
				]
			},
			"properties": {
				"name": "塞舌尔"
			}
		},
		{
			"type": "Feature",
			"geometry": {
				"type": "Point",
				"coordinates": [
					38.186777998643758,
					35.84898318735692
				]
			},
			"properties": {
				"name": "叙利亚"
			}
		},
		{
			"type": "Feature",
			"geometry": {
				"type": "Point",
				"coordinates": [
					-72.28634602334384,
					21.813386944970973
				]
			},
			"properties": {
				"name": "特克斯和凯科斯群岛"
			}
		},
		{
			"type": "Feature",
			"geometry": {
				"type": "Point",
				"coordinates": [
					18.294412830391925,
					13.071210714283613
				]
			},
			"properties": {
				"name": "乍得"
			}
		},
		{
			"type": "Feature",
			"geometry": {
				"type": "Point",
				"coordinates": [
					0.7666097858625695,
					8.878596232578456
				]
			},
			"properties": {
				"name": "多哥"
			}
		},
		{
			"type": "Feature",
			"geometry": {
				"type": "Point",
				"coordinates": [
					101.41212733069261,
					14.155999789817863
				]
			},
			"properties": {
				"name": "泰国"
			}
		},
		{
			"type": "Feature",
			"geometry": {
				"type": "Point",
				"coordinates": [
					70.88698123594551,
					38.492453250402757
				]
			},
			"properties": {
				"name": "塔吉克斯坦"
			}
		},
		{
			"type": "Feature",
			"geometry": {
				"type": "Point",
				"coordinates": [
					59.124301338449907,
					39.16868614919183
				]
			},
			"properties": {
				"name": "土库曼斯坦"
			}
		},
		{
			"type": "Feature",
			"geometry": {
				"type": "Point",
				"coordinates": [
					125.37110781524879,
					-8.866847827446208
				]
			},
			"properties": {
				"name": "东帝汶"
			}
		},
		{
			"type": "Feature",
			"geometry": {
				"type": "Point",
				"coordinates": [
					-174.6469319046952,
					-20.03686600960463
				]
			},
			"properties": {
				"name": "汤加"
			}
		},
		{
			"type": "Feature",
			"geometry": {
				"type": "Point",
				"coordinates": [
					-61.31387378084714,
					10.429919552569749
				]
			},
			"properties": {
				"name": "特立尼达和多巴哥"
			}
		},
		{
			"type": "Feature",
			"geometry": {
				"type": "Point",
				"coordinates": [
					10.165174134402435,
					33.90192849220694
				]
			},
			"properties": {
				"name": "突尼斯"
			}
		},
		{
			"type": "Feature",
			"geometry": {
				"type": "Point",
				"coordinates": [
					35.32571281968054,
					39.26030624105232
				]
			},
			"properties": {
				"name": "土耳其"
			}
		},
		{
			"type": "Feature",
			"geometry": {
				"type": "Point",
				"coordinates": [
					33.69703761664389,
					-6.368796969738854
				]
			},
			"properties": {
				"name": "坦桑尼亚"
			}
		},
		{
			"type": "Feature",
			"geometry": {
				"type": "Point",
				"coordinates": [
					32.376511313247359,
					1.5984601561078765
				]
			},
			"properties": {
				"name": "乌干达"
			}
		},
		{
			"type": "Feature",
			"geometry": {
				"type": "Point",
				"coordinates": [
					30.171892701288614,
					48.45989850108306
				]
			},
			"properties": {
				"name": "乌克兰"
			}
		},
		{
			"type": "Feature",
			"geometry": {
				"type": "Point",
				"coordinates": [
					-56.26184256622672,
					-32.107264961631127
				]
			},
			"properties": {
				"name": "乌拉圭"
			}
		},
		{
			"type": "Feature",
			"geometry": {
				"type": "Point",
				"coordinates": [
					-100.37109375,
					39.639537564366687
				]
			},
			"properties": {
				"name": "美国"
			}
		},
		{
			"type": "Feature",
			"geometry": {
				"type": "Point",
				"coordinates": [
					67.52574158211809,
					40.71836006270548
				]
			},
			"properties": {
				"name": "乌兹别克斯坦"
			}
		},
		{
			"type": "Feature",
			"geometry": {
				"type": "Point",
				"coordinates": [
					-61.18911112380623,
					13.24066610485745
				]
			},
			"properties": {
				"name": "圣文森特和格林纳丁斯"
			}
		},
		{
			"type": "Feature",
			"geometry": {
				"type": "Point",
				"coordinates": [
					-64.94740200521827,
					7.665908337907194
				]
			},
			"properties": {
				"name": "委内瑞拉"
			}
		},
		{
			"type": "Feature",
			"geometry": {
				"type": "Point",
				"coordinates": [
					-64.75021503901218,
					17.760174838274286
				]
			},
			"properties": {
				"name": "美属维京群岛"
			}
		},
		{
			"type": "Feature",
			"geometry": {
				"type": "Point",
				"coordinates": [
					105.86362207327878,
					16.85562996802093
				]
			},
			"properties": {
				"name": "越南"
			}
		},
		{
			"type": "Feature",
			"geometry": {
				"type": "Point",
				"coordinates": [
					167.93038033141245,
					-16.355766938174705
				]
			},
			"properties": {
				"name": "瓦努阿图"
			}
		},
		{
			"type": "Feature",
			"geometry": {
				"type": "Point",
				"coordinates": [
					-172.07783714110435,
					-13.778428250294926
				]
			},
			"properties": {
				"name": "萨摩亚"
			}
		},
		{
			"type": "Feature",
			"geometry": {
				"type": "Point",
				"coordinates": [
					46.88515121465008,
					14.939008388833124
				]
			},
			"properties": {
				"name": "也门"
			}
		},
		{
			"type": "Feature",
			"geometry": {
				"type": "Point",
				"coordinates": [
					25.666670486555895,
					-28.674509815552605
				]
			},
			"properties": {
				"name": "南非"
			}
		},
		{
			"type": "Feature",
			"geometry": {
				"type": "Point",
				"coordinates": [
					29.14989108903687,
					-12.282124281955485
				]
			},
			"properties": {
				"name": "赞比亚"
			}
		},
		{
			"type": "Feature",
			"geometry": {
				"type": "Point",
				"coordinates": [
					29.658442609952659,
					-19.680702451639307
				]
			},
			"properties": {
				"name": "津巴布韦"
			}
		},
		{
			"type": "Feature",
			"geometry": {
				"type": "Point",
				"coordinates": [
					75.2836772254142,
					35.483179349642359
				]
			},
			"properties": {
				"name": ""
			}
		},
		{
			"type": "Feature",
			"geometry": {
				"type": "Point",
				"coordinates": [
					76.46635707626865,
					33.86444195552313
				]
			},
			"properties": {
				"name": ""
			}
		},
		{
			"type": "Feature",
			"geometry": {
				"type": "Point",
				"coordinates": [
					12.4310302734375,
					43.93350594453702
				]
			},
			"properties": {
				"name": "圣马力诺"
			}
		},
		{
			"type": "Feature",
			"geometry": {
				"type": "Point",
				"coordinates": [
					-53.0859375,
					3.6888551431470479
				]
			},
			"properties": {
				"name": "法属圭亚那"
			}
		},
		{
			"type": "Feature",
			"geometry": {
				"type": "Point",
				"coordinates": [
					12.447509765625,
					41.89818843043047
				]
			},
			"properties": {
				"name": "梵蒂冈"
			}
		},
		{
			"type": "Feature",
			"geometry": {
				"type": "Point",
				"coordinates": [
					7.432250976562499,
					43.74332071724287
				]
			},
			"properties": {
				"name": "摩纳哥"
			}
		}
	]
}